"datetime","lat","lon","truewd","ws","gust","atmoairt","roll","pitch","heading","chlavg","chlsd","chlmin","chlmax","phyavg","physd","phymin","phymax","exotempc","exodomgl","exodosat","exophy","exosal","exospcond","exotds","exoturb"
2024-05-28 13:05:46,46.8931,-91.0429,243.38,3.93,7.79,10.7,-1.16,3,291.88,0.7,0.325,0.161,1.692,0.148,0.167,0,1.031,8.818,11.96,103.06,-0.28,0.05,108.07,0.07,0.63
2024-05-28 13:15:46,46.8931,-91.043,293.06,5.96,8.05,9.7,4.13,8.57,333.66,0.617,0.322,0.113,1.644,0.152,0.184,0,1.096,8.905,11.94,103.13,-0.29,0.05,108.07,0.07,0.59
2024-05-28 13:45:49,46.8931,-91.0429,175.18,1.43,2.52,11.6,0.96,0.89,245.28,0.72,0.314,0.226,1.692,0.182,0.207,0,0.902,8.864,11.96,103.18,-0.3,0.05,108.1,0.07,0.6
2024-05-28 13:55:45,46.8931,-91.0428,182.71,1.55,2.24,11.3,0.69,3.88,258.51,0.627,0.243,0.193,1.531,0.157,0.173,0,0.902,8.798,11.97,103.07,-0.31,0.05,108.09,0.07,0.61
2024-05-28 14:35:53,46.8931,-91.0429,191.06,0.74,1.39,11.6,-1.49,0.68,287.76,0.641,0.361,0.097,1.789,0.145,0.161,0,0.886,8.958,11.96,103.42,-0.31,0.05,108.09,0.07,0.61
2024-05-28 14:55:50,46.8931,-91.0429,167.01,0.7,1.48,12.6,-2.09,0.28,284.51,0.562,0.254,0.048,1.563,0.152,0.159,0,0.741,9.187,11.94,103.79,-0.25,0.05,108.06,0.07,0.56
2024-05-28 15:15:56,46.8931,-91.0429,215.34,0.61,1.78,13.2,-3.57,1.23,278.94,0.583,0.249,0.177,1.466,0.15,0.181,0,0.854,9.214,11.95,103.92,-0.27,0.05,108.1,0.07,0.53
2024-05-28 15:35:52,46.8932,-91.0429,283.47,1.32,2.07,12.7,-0.06,3.49,321.37,0.597,0.303,0.081,1.611,0.139,0.13,0,0.918,9.204,11.96,104.01,-0.28,0.05,108.1,0.07,0.54
2024-05-28 15:45:56,46.893,-91.0429,276.25,2.21,3.25,12.5,-0.98,2.58,328.25,0.596,0.302,0.097,1.579,0.133,0.122,0,0.79,9.156,11.97,103.94,-0.3,0.05,108.11,0.07,0.52
2024-05-28 18:26:09,46.8931,-91.0429,169.89,0.82,1.26,12.3,-1.78,1.8,245.99,0.821,0.288,0.338,1.756,0.149,0.166,0,0.902,9.139,12.01,104.23,-0.28,0.05,108.14,0.07,0.6
2024-05-28 19:16:12,46.8931,-91.0429,225.68,0.65,1,12.7,-1.77,1.75,252.88,1.078,0.309,0.548,2.143,0.136,0.138,0,0.838,9.046,12.02,104.12,-0.26,0.05,108.14,0.07,0.58
2024-05-28 19:26:12,46.8931,-91.0429,253.75,0.72,2.07,12.8,-1,1.85,277.25,1.254,0.331,0.677,2.32,0.157,0.163,0,0.951,9.029,12.02,104.1,-0.21,0.05,108.14,0.07,0.6
2024-05-28 20:16:17,46.8931,-91.043,206.9,0.9,1.44,12.4,-1.9,1.42,258.1,2.117,0.328,1.402,3.11,0.141,0.099,0,0.628,8.958,12.03,104,-0.21,0.05,108.12,0.07,0.53
2024-05-28 21:36:23,46.8931,-91.0429,13.49,1.67,2.37,9.4,-2.28,2.31,92.59,2.523,0.307,1.805,3.609,0.133,0.124,0,0.806,9.007,12.03,104.1,-0.2,0.05,108.12,0.07,0.61
2024-05-28 21:46:24,46.8931,-91.0428,27.27,0.96,1.57,9.4,-1.47,2.18,110.77,2.504,0.316,1.966,3.625,0.14,0.11,0,0.628,9.002,12.03,104.11,-0.2,0.05,108.14,0.07,0.58
2024-05-28 21:56:21,46.8931,-91.0429,61.51,0.83,1.44,9.3,-1.17,1.89,152.71,2.64,0.382,1.821,3.706,0.198,0.213,0,0.902,9.004,12.03,104.14,-0.22,0.05,108.1,0.07,0.59
2024-05-28 22:06:21,46.8931,-91.0429,292.99,0.69,1.99,9.3,-1.95,1.37,150.79,2.678,0.449,1.611,4.254,0.159,0.17,0,0.918,8.991,12.04,104.12,-0.22,0.05,108.11,0.07,0.59
2024-05-28 22:16:21,46.8931,-91.0429,66.89,1.42,1.86,8.9,-1.01,2.02,150.19,2.582,0.324,1.966,3.738,0.143,0.116,0,0.822,9.006,12.04,104.16,-0.21,0.05,108.11,0.07,0.6
2024-05-28 22:26:22,46.8931,-91.0429,60.82,1.78,2.24,8.7,-1.27,1.75,137.22,2.74,0.432,1.74,4.27,0.154,0.15,0,0.935,8.969,12.04,104.07,-0.22,0.05,108.1,0.07,0.54
2024-05-28 22:46:23,46.8931,-91.0429,5.71,1.1,1.46,8.7,-2.23,1.89,99.61,2.604,0.329,2.079,3.513,0.157,0.169,0,0.87,8.973,12.03,104.06,-0.24,0.05,108.12,0.07,0.59
2024-05-28 23:06:24,46.8931,-91.0429,52.02,1.3,2.09,8.2,-1.29,2.22,135.72,2.853,0.452,2.111,4.496,0.162,0.158,0,0.822,9.13,12.02,104.33,-0.2,0.05,108.13,0.07,0.58
2024-05-28 23:16:24,46.8931,-91.0429,66.21,0.96,1.74,7.9,-0.76,2.11,152.71,2.733,0.343,2.111,4.077,0.167,0.184,0,0.886,9.308,12,104.63,-0.23,0.05,108.14,0.07,0.53
2024-05-28 23:36:25,46.8931,-91.0429,349.28,1.29,1.86,8.2,-1,1.27,139.08,2.645,0.334,2.127,3.69,0.18,0.172,0,0.854,9.22,12.02,104.53,-0.26,0.05,108.12,0.07,0.55
2024-05-28 23:56:26,46.8931,-91.0429,38.62,1.1,1.49,7.6,-1.43,2.27,129.02,2.669,0.335,1.982,3.593,0.172,0.159,0,0.822,9.325,12.01,104.77,-0.18,0.05,108.05,0.07,0.5
2024-05-29 00:26:32,46.8931,-91.0429,51.81,1.13,1.55,7.1,-1.04,1.68,135.21,2.836,0.469,2.062,5.011,0.179,0.174,0,0.886,9.283,12.02,104.7,-0.18,0.05,108.05,0.07,0.52
2024-05-29 00:36:28,46.8931,-91.0429,47.21,1.59,2.22,6.9,-1.37,1.21,127.01,2.705,0.28,2.062,3.706,0.164,0.169,0,0.838,9.478,11.98,104.88,-0.25,0.05,108.09,0.07,0.49
2024-05-29 00:46:32,46.8932,-91.0429,60.38,1.35,2.21,7,-1.37,2.3,143.68,2.668,0.333,1.982,3.754,0.172,0.157,0,0.838,10.803,11.75,106.1,-0.37,0.05,109.15,0.07,0.76
2024-05-29 00:56:28,46.8931,-91.0429,143.41,0.5,1.23,7.2,-1.81,1.66,152.11,2.77,0.342,2.208,3.706,0.164,0.164,0,0.87,10.764,11.76,106.12,-0.36,0.05,109.05,0.07,0.67
2024-05-29 01:06:33,46.8931,-91.0429,14.66,1.11,2.21,7.7,-0.85,1.57,108.66,2.708,0.38,1.966,3.916,0.177,0.164,0,0.806,10.87,11.75,106.26,-0.35,0.05,109.36,0.07,0.67
2024-05-29 01:16:29,46.8931,-91.0429,107.06,1.33,2.65,7.8,-1.61,1.83,170.56,2.846,0.385,2.095,4.044,0.179,0.187,0,0.951,10.837,11.75,106.17,-0.35,0.05,109.21,0.07,0.66
2024-05-29 01:36:34,46.8931,-91.0429,38.39,1.34,2.43,7.5,-1.3,1.82,127.09,2.878,0.368,2.336,3.819,0.172,0.184,0,0.967,10.535,11.81,105.93,-0.35,0.05,109.97,0.07,0.65
2024-05-29 01:46:35,46.8931,-91.0428,38.92,1.54,2.04,7.6,-1.42,2.02,122.82,2.847,0.303,2.191,4.125,0.154,0.159,0,0.838,10.717,11.8,106.33,-0.33,0.05,109.48,0.07,0.61
2024-05-29 01:56:32,46.8931,-91.0428,61.28,1.01,1.73,7.7,-1.78,1.84,142.18,2.843,0.328,2.175,3.851,0.194,0.203,0,0.902,10.733,11.81,106.42,-0.36,0.05,109.49,0.07,0.62
2024-05-29 02:06:36,46.8931,-91.0428,33.86,0.7,1.25,7.8,-1.34,2.41,121.36,3.028,0.336,2.401,3.932,0.167,0.165,0,0.838,10.77,11.78,106.28,-0.37,0.05,109.67,0.07,0.61
2024-05-29 02:16:32,46.8931,-91.0428,28.38,1.01,1.49,7.8,-1.67,1.69,125.48,3.039,0.397,2.272,3.996,0.189,0.19,0,1.015,10.701,11.8,106.27,-0.36,0.05,109.47,0.07,0.6
2024-05-29 02:26:33,46.8931,-91.0428,38.61,1.25,1.67,7.5,-1.31,2.1,122.21,2.963,0.396,2.159,4.286,0.195,0.187,0,0.902,10.7,11.8,106.26,-0.39,0.05,109.43,0.07,0.63
2024-05-29 02:36:33,46.8931,-91.0428,50.63,1.39,1.86,7.4,-1.51,1.94,134.43,2.968,0.289,2.401,3.98,0.182,0.186,0,0.902,10.698,11.79,106.23,-0.35,0.05,109.44,0.07,0.61
2024-05-29 02:46:33,46.8932,-91.0428,50.45,1.63,2.6,7.5,-0.5,2.49,130.25,3.205,0.432,2.546,4.496,0.182,0.164,0,0.935,10.705,11.79,106.24,-0.35,0.05,109.36,0.07,0.6
2024-05-29 03:06:34,46.8932,-91.0429,31.91,0.88,1.77,7.3,-1.49,1.44,133.61,2.975,0.341,2.256,4.125,0.19,0.186,0,0.951,10.687,11.79,106.16,-0.29,0.05,109.11,0.07,0.58
2024-05-29 03:16:34,46.8932,-91.0429,27.19,0.68,1.29,7.3,-1.39,1.82,134.89,3.35,0.493,2.32,4.947,0.174,0.143,0,0.854,10.114,11.9,105.74,-0.28,0.05,108.38,0.07,0.51
2024-05-29 03:26:34,46.8932,-91.0429,70.28,1.18,1.44,7,-0.94,2.19,141.58,3.605,0.454,2.675,4.673,0.187,0.181,0,0.886,10.137,11.95,106.18,-0.27,0.05,108.6,0.07,0.55
2024-05-29 03:36:35,46.8931,-91.0429,51.39,1.31,1.86,6.6,-1.93,0.66,132.39,3.26,0.333,2.53,4.141,0.144,0.095,0,0.612,10.41,11.84,105.91,-0.25,0.05,108.68,0.07,0.49
2024-05-29 03:46:35,46.8931,-91.0429,80.98,1.19,1.59,6.4,-1.76,2.13,149.68,3.492,0.446,2.643,5.027,0.196,0.185,0,0.983,10.448,11.82,105.87,-0.27,0.05,109.13,0.07,0.59
2024-05-29 03:56:35,46.8931,-91.0429,65.63,1.75,2.4,6.2,-1.22,0.87,136.33,3.423,0.401,2.562,4.576,0.182,0.193,0,0.967,10.12,11.92,105.97,-0.29,0.05,108.39,0.07,0.54
2024-05-29 04:06:40,46.8932,-91.0429,49.93,1.64,2.4,6.1,-1.21,0.5,131.13,3.302,0.346,2.53,4.27,0.195,0.199,0,1.015,10.228,11.85,105.59,-0.28,0.05,109.56,0.07,0.63
2024-05-29 04:16:41,46.8932,-91.0429,19.57,1.11,1.55,6.3,-1.14,0.87,118.97,3.389,0.323,2.804,4.318,0.214,0.202,0,0.886,10.081,11.83,105.05,-0.33,0.05,109.43,0.07,0.61
2024-05-29 04:26:41,46.8931,-91.0429,48.28,1.12,1.55,6.2,-1.7,-0.53,132.08,3.452,0.385,2.675,4.625,0.18,0.185,0,1.031,9.988,11.87,105.13,-0.32,0.05,109.28,0.07,0.59
2024-05-29 04:36:37,46.8931,-91.0429,58.45,0.89,1.4,6.4,-2.07,1.6,129.85,3.42,0.423,2.353,4.753,0.179,0.182,0,1.047,9.977,11.86,105,-0.31,0.05,109.28,0.07,0.62
2024-05-29 04:46:38,46.8931,-91.0429,81.66,1.34,1.92,6.4,-1.6,1.33,142.76,3.767,0.51,2.691,5.06,0.177,0.164,0,0.806,9.862,11.89,105.04,-0.27,0.05,109.02,0.07,0.6
2024-05-29 04:56:38,46.8931,-91.0429,80.62,0.9,1.36,6.3,-1.04,2.14,134.02,3.569,0.416,2.514,4.689,0.169,0.138,0,0.902,9.665,11.96,105.16,-0.28,0.05,108.83,0.07,0.59
2024-05-29 05:06:39,46.8931,-91.0429,61.46,0.68,1.11,6.3,0.01,4.06,133.36,3.746,0.39,2.852,4.898,0.173,0.157,0,0.741,9.566,11.96,104.95,-0.31,0.05,108.46,0.07,0.55
2024-05-29 05:16:40,46.8931,-91.0429,59.51,1.38,2.05,5.7,-0.98,2.27,132.21,4.202,0.556,3.207,6.01,0.164,0.148,0,1.015,9.457,12.01,105.07,-0.29,0.05,108.37,0.07,0.55
2024-05-29 05:26:40,46.8931,-91.0429,49.24,1.34,1.64,5.6,-0.85,2.59,129.34,4.288,0.396,3.384,5.333,0.187,0.169,0,0.967,9.415,12.02,105.08,-0.26,0.05,108.43,0.07,0.55
2024-05-29 05:46:42,46.8932,-91.0429,42.78,1.15,1.51,5.5,-1.12,2.65,135.48,4.36,0.593,3.207,5.849,0.171,0.14,0,0.741,9.393,11.99,104.68,-0.27,0.05,108.54,0.07,0.59
2024-05-29 07:16:54,46.8932,-91.0429,179.23,0.46,0.7,9,-1.83,1.09,142.33,3.197,0.609,2.111,4.463,0.182,0.174,0,0.902,9.169,12.03,104.55,-0.22,0.05,108.15,0.07,0.56
2024-05-29 07:26:51,46.8932,-91.0429,194.35,0.99,1.99,8.8,-0.72,1.86,156.55,3.923,0.552,2.159,5.124,0.184,0.181,0,0.902,9.133,12.08,104.84,-0.26,0.05,108.24,0.07,0.53
2024-05-29 07:36:51,46.8932,-91.0429,195.86,0.99,1.88,9.1,-1.19,1.89,156.46,3.576,0.621,2.401,5.366,0.183,0.148,0,0.902,9.156,12.06,104.71,-0.25,0.05,108.29,0.07,0.58
2024-05-29 07:46:51,46.8932,-91.0429,177.81,0.85,1.74,9.4,-1.23,1.52,154.21,3.259,0.502,1.644,4.528,0.181,0.167,0,0.886,9.203,12.01,104.44,-0.26,0.05,108.4,0.07,0.56
2024-05-29 08:16:53,46.8931,-91.0429,213.15,2.15,2.66,8.4,-2.15,1.36,183.75,1.26,0.544,0.419,3.11,0.18,0.196,0,0.935,9.186,12.01,104.41,-0.26,0.05,108.4,0.07,0.56
2024-05-29 08:26:54,46.8931,-91.0429,200.97,1.23,2.27,8.8,-1.84,2.65,165.77,1.148,0.373,0.387,2.369,0.174,0.211,0,1.096,9.18,12.02,104.44,-0.28,0.05,108.37,0.07,0.57
2024-05-29 08:37:12,46.8931,-91.0429,208.38,0.27,0.58,10.3,-2.12,1.55,158.18,1.33,0.538,0.403,3.271,0.177,0.191,0,0.854,9.154,12.02,104.37,-0.28,0.05,108.29,0.07,0.53
2024-05-29 08:46:54,46.8931,-91.0429,156.33,0.7,1.17,9.4,-1.23,2.54,169.23,1.044,0.304,0.419,2.014,0.164,0.162,0,0.999,9.146,12.03,104.44,-0.22,0.05,108.35,0.07,0.59
2024-05-29 08:56:55,46.8931,-91.0429,229.29,1.58,2.13,8.8,-0.79,3.09,199.89,1.031,0.341,0.354,2.288,0.156,0.167,0,0.967,9.159,12.03,104.5,-0.25,0.05,108.39,0.07,0.56
2024-05-29 09:06:55,46.8931,-91.0428,229.72,1.82,2.59,8.8,-0.89,1.95,208.12,1,0.339,0.354,2.03,0.164,0.165,0,0.999,9.148,12.03,104.46,-0.23,0.05,108.37,0.07,0.56
2024-05-29 09:26:56,46.8931,-91.043,312.95,3.2,4.37,8.9,-1.44,2.48,334.05,1.043,0.321,0.451,2.272,0.169,0.17,0,0.87,9.172,12.03,104.52,-0.21,0.05,108.47,0.07,0.57
2024-05-29 09:36:56,46.8931,-91.043,257.07,2.85,3.57,9.1,-2.29,2.15,312.67,1.156,0.393,0.371,2.433,0.157,0.164,0,0.951,9.267,12.01,104.59,-0.2,0.05,108.44,0.07,0.56
2024-05-29 09:47:00,46.893,-91.0428,249.42,2.41,2.98,9.1,-0.88,1.33,287.12,0.997,0.322,0.387,1.934,0.165,0.18,0,0.902,9.228,12.01,104.47,-0.27,0.05,108.39,0.07,0.56
2024-05-29 09:56:58,46.8931,-91.0429,268.16,3.14,4.61,9.1,0.43,1.51,304.56,0.872,0.309,0.274,1.772,0.156,0.172,0,0.854,9.146,12.03,104.44,-0.23,0.05,108.32,0.07,0.55
2024-05-29 10:06:57,46.8931,-91.043,242.51,4.67,5.68,8.8,-1.83,3.09,300.71,0.691,0.3,0.129,1.66,0.137,0.16,0,0.918,9.175,12.04,104.6,-0.26,0.05,108.29,0.07,0.55
2024-05-29 10:17:02,46.8931,-91.0429,257.3,5.1,6.28,8.6,4,5.19,319.1,0.599,0.265,0.113,1.563,0.153,0.177,0,0.886,9.226,12.03,104.63,-0.23,0.05,108.18,0.07,0.58
2024-05-29 11:57:09,46.8931,-91.0429,260.65,4.19,5.42,8.4,-0.78,3.27,321.35,0.689,0.312,0.177,1.676,0.138,0.145,0,0.854,9.252,12.06,105,-0.28,0.05,108.12,0.07,0.53
2024-05-29 12:07:11,46.8931,-91.0428,233.33,4.71,6.68,8.4,-3.77,4.69,295.13,0.656,0.275,0.064,1.724,0.148,0.17,0,0.87,9.287,12.06,105.05,-0.27,0.05,108.12,0.07,0.53
2024-05-29 12:17:07,46.8931,-91.0429,245.06,4.85,6.35,8.4,1.65,8.09,306.76,0.686,0.336,0.177,1.66,0.128,0.135,0,0.806,9.313,12.06,105.1,-0.27,0.05,108.15,0.07,0.55
2024-05-29 12:27:07,46.8931,-91.043,238.06,4.39,6.05,8.5,-0.31,10.55,296.16,0.673,0.314,0.209,1.676,0.147,0.146,0,0.87,9.419,12.03,105.16,-0.25,0.05,108.17,0.07,0.53
2024-05-29 12:37:07,46.8931,-91.0429,233.54,4.35,5.94,8.7,2.48,0.71,294.04,0.635,0.323,0.032,1.692,0.129,0.124,0,0.757,9.5,12.02,105.29,-0.23,0.05,108.18,0.07,0.48
2024-05-29 12:47:11,46.8931,-91.043,224.14,4.96,6.38,8.9,-2.39,-2.35,288.14,0.647,0.373,0,1.692,0.117,0.119,0,0.806,9.597,12.03,105.57,-0.29,0.05,108.31,0.07,0.57
2024-05-29 12:57:08,46.8931,-91.043,234.47,5.54,7.11,9.2,0.59,0.78,298.47,0.638,0.324,0.129,1.708,0.166,0.194,0,0.886,9.656,12,105.48,-0.28,0.05,108.24,0.07,0.53
2024-05-29 14:07:18,46.8931,-91.0429,266.55,6.48,8.29,12,-3.46,-0.21,326.95,0.602,0.265,0,1.644,0.142,0.163,0,1.031,9.547,12.02,105.41,-0.3,0.05,108.28,0.07,0.55
2024-05-29 14:17:19,46.8931,-91.0429,258.37,6.77,8.28,12.1,-2.2,3.69,318.97,0.621,0.291,0.129,1.644,0.161,0.182,0,0.838,9.52,12.01,105.22,-0.22,0.05,108.21,0.07,0.53
2024-05-29 14:27:19,0,0,267.58,7.19,8.71,10.8,4.82,5.64,327.88,0.681,0.271,0.113,1.708,0.137,0.162,0,0.951,9.491,12.05,105.45,-0.23,0.05,108.31,0.07,0.54
2024-05-29 14:37:15,46.8931,-91.0429,276.71,7,8.62,12.1,5.71,9.05,338.21,0.667,0.303,0.064,1.724,0.191,0.206,0,0.999,9.388,12.06,105.31,-0.26,0.05,108.26,0.07,0.52
2024-05-29 14:47:19,46.8931,-91.0429,286.57,6.89,9.49,13.1,5.18,7.97,345.77,0.658,0.255,0.097,1.547,0.132,0.129,0,0.79,9.354,12.06,105.25,-0.24,0.05,108.27,0.07,0.53
2024-05-29 15:07:16,46.8931,-91.0429,272.09,6.93,8.57,13.3,0.12,5.89,334.09,0.642,0.263,0.177,1.676,0.16,0.2,0,1.063,9.059,12.11,104.95,-0.22,0.05,108.19,0.07,0.53
2024-05-29 15:17:18,46.8931,-91.0429,270.59,6.3,8.31,13.5,0.37,0.87,327.69,0.768,0.292,0.242,1.708,0.148,0.165,0,0.806,8.745,12.15,104.52,-0.25,0.05,108.07,0.07,0.57
2024-05-29 15:27:22,46.8931,-91.0429,288.8,6.5,9.57,13.1,4.73,8.83,347.7,0.724,0.313,0.209,1.772,0.152,0.175,0,1.063,8.837,12.14,104.68,-0.25,0.05,108.14,0.07,0.55
2024-05-29 15:37:18,46.8931,-91.0429,282.68,6.28,7.6,13.7,-4.66,5.17,339.28,0.741,0.292,0.193,1.772,0.147,0.155,0,0.741,8.76,12.16,104.63,-0.21,0.05,108.15,0.07,0.56
2024-05-29 15:47:18,46.8931,-91.043,270.7,6.11,7.37,13.4,-6.99,-4.61,327.7,0.747,0.319,0.29,1.708,0.128,0.134,0,0.935,8.687,12.17,104.52,-0.21,0.05,108.12,0.07,0.53
2024-05-29 16:17:25,46.8931,-91.043,268.06,5.69,8.48,13.6,-1.51,4.11,324.06,0.794,0.338,0.242,1.756,0.151,0.171,0,0.886,8.464,12.21,104.28,-0.23,0.05,108.06,0.07,0.58
2024-05-29 16:27:22,46.8931,-91.0431,283.44,5.52,7.15,13.3,4.69,4.75,340.84,0.767,0.306,0.29,1.805,0.146,0.139,0,0.87,8.453,12.22,104.36,-0.22,0.05,108.1,0.07,0.55
2024-05-29 16:47:27,46.8931,-91.043,270.13,5.02,7.66,14.7,-3.85,0.98,319.93,0.792,0.285,0.242,1.837,0.176,0.197,0,0.902,8.388,12.23,104.31,-0.22,0.05,108.08,0.07,0.53
2024-05-29 16:57:27,46.8931,-91.043,262.3,5.34,7.28,14,-1.11,4.57,317.7,0.81,0.293,0.226,1.805,0.123,0.118,0,0.773,8.341,12.25,104.33,-0.23,0.05,108.09,0.07,0.52
2024-05-29 17:07:23,46.893,-91.043,28.69,5,7.02,14.4,-1.2,0.85,344.29,0.784,0.338,0.242,1.724,0.164,0.145,0,0.806,8.334,12.25,104.28,-0.25,0.05,108.07,0.07,0.53
2024-05-29 17:17:23,46.8931,-91.043,2.66,5.23,7.9,14.1,3.62,7.56,326.16,0.809,0.32,0.177,1.692,0.174,0.212,0,0.935,8.285,12.25,104.2,-0.26,0.05,108.04,0.07,0.58
2024-05-29 17:27:23,46.8931,-91.043,5.75,4.96,6.34,14.3,0.13,6.21,331.15,0.777,0.262,0.209,1.756,0.145,0.149,0,0.935,8.253,12.27,104.27,-0.18,0.05,108.07,0.07,0.55
2024-05-29 17:37:28,46.8931,-91.043,350.76,5.11,6.78,13.7,-3.48,-1.66,315.46,0.8,0.292,0.306,1.869,0.128,0.103,0,0.725,8.202,12.28,104.23,-0.21,0.05,108.06,0.07,0.57
2024-05-29 17:47:25,46.8931,-91.043,6.21,5.21,6.65,13.3,4.96,7.53,333.91,0.86,0.333,0.387,1.837,0.143,0.167,0,0.967,8.189,12.28,104.22,-0.24,0.05,108.07,0.07,0.54
2024-05-29 18:47:33,46.8931,-91.043,118.5,2.39,4.29,16.6,-4.71,1.05,11,1.028,0.333,0.435,2.111,0.189,0.203,0,0.886,7.946,12.33,104,-0.16,0.05,108.04,0.07,0.59
2024-05-29 18:57:30,46.8931,-91.043,83.02,2.25,4.3,16.8,-3.68,0.87,335.72,1.097,0.324,0.5,2.079,0.145,0.152,0,0.838,7.939,12.33,103.99,-0.24,0.05,108.06,0.07,0.55
2024-05-29 19:07:35,46.8931,-91.043,88.29,3.21,5.43,16.7,-1,4.57,61.79,1.311,0.31,0.564,2.433,0.149,0.155,0,0.935,7.89,12.35,103.99,-0.2,0.05,108.06,0.07,0.53
2024-05-29 19:37:37,46.8932,-91.0429,146.31,1.57,5.35,16.4,-0.81,4.41,124.51,1.919,0.286,1.386,2.933,0.125,0.107,0,0.661,7.81,12.37,104.02,-0.17,0.05,108.08,0.07,0.55
2024-05-29 19:57:34,46.8931,-91.043,134.57,1.23,2.71,15.9,-1.36,3.09,116.37,2.672,0.363,2.03,3.916,0.172,0.17,0,0.999,7.78,12.41,104.24,-0.22,0.05,108.14,0.07,0.54
2024-05-29 20:07:35,46.8931,-91.0429,132.24,1.61,2.71,15,-0.26,1.3,121.64,2.881,0.398,2.079,4.189,0.167,0.134,0,0.854,7.77,12.42,104.3,-0.18,0.05,108.16,0.07,0.57
2024-05-29 20:17:35,46.8931,-91.0429,133.12,1.23,4.24,14.7,0.05,2.03,116.72,3.125,0.337,2.385,4.125,0.186,0.19,0,0.902,7.815,12.42,104.46,-0.13,0.05,108.17,0.07,0.58
2024-05-29 20:27:35,46.8931,-91.0429,175.71,0.74,1.78,14.4,-0.73,2.49,130.11,3.152,0.363,2.449,4.334,0.18,0.201,0,0.918,7.833,12.44,104.61,-0.14,0.05,108.17,0.07,0.57
2024-05-29 20:37:41,46.8931,-91.0429,163.11,0.86,1.58,13.8,-1.27,-0.52,111.71,3.188,0.438,2.353,4.512,0.19,0.21,0,0.918,7.837,12.44,104.63,-0.12,0.05,108.19,0.07,0.59
2024-05-29 20:47:37,46.8931,-91.0429,152.42,0.74,1.66,12.8,-0.56,2.99,120.72,3.217,0.397,2.481,4.463,0.173,0.176,0,0.935,7.814,12.44,104.62,-0.13,0.05,108.19,0.07,0.61
2024-05-29 23:17:53,46.8931,-91.043,100.4,4.03,5.73,9.1,-1.69,3.32,81.5,3.657,0.341,2.836,4.625,0.196,0.185,0,0.886,8.329,12.28,104.51,-0.23,0.05,108.22,0.07,0.56
2024-05-29 23:27:49,46.8931,-91.0429,105.15,3.44,6.34,9.2,0.37,2.98,88.35,3.749,0.399,2.933,4.85,0.174,0.151,0,0.918,8.343,12.28,104.59,-0.18,0.05,108.19,0.07,0.51
2024-05-29 23:47:50,46.8931,-91.043,114.49,4.16,5.91,9.2,0.78,4.27,96.79,3.548,0.29,2.917,4.705,0.208,0.215,0,0.951,8.39,12.26,104.54,-0.19,0.05,108.22,0.07,0.5
2024-05-29 23:57:51,46.8931,-91.0429,119.43,4.56,6.56,9.7,0.02,3.33,99.43,3.852,0.489,2.933,5.527,0.192,0.203,0,0.902,8.377,12.25,104.43,-0.17,0.05,108.23,0.07,0.53
2024-05-30 00:07:51,46.8931,-91.0429,99.08,3.85,5.91,9.7,-0.81,3.42,78.98,3.74,0.409,3.045,5.043,0.191,0.186,0,0.838,8.359,12.26,104.43,-0.21,0.05,108.2,0.07,0.56
2024-05-30 00:37:53,46.8931,-91.0429,134.99,2.17,3.74,9.3,-0.05,3.31,125.39,3.823,0.507,2.884,5.914,0.192,0.19,0,0.822,8.372,12.24,104.32,-0.15,0.05,108.17,0.07,0.56
2024-05-30 01:08:00,46.8931,-91.0429,167.43,0.77,1.3,8.8,-0.49,2.13,159.33,3.845,0.614,2.82,6.864,0.137,0.117,0,0.822,8.442,12.22,104.3,-0.19,0.05,108.17,0.07,0.55
2024-05-30 01:18:00,46.8932,-91.0429,124.95,1.03,1.72,8,-0.5,2.75,140.95,3.848,0.618,3.11,6.945,0.211,0.212,0,0.967,8.491,12.19,104.19,-0.22,0.05,108.16,0.07,0.47
2024-05-30 02:08:00,46.8931,-91.0429,64.58,1.45,2.03,6.4,-0.49,2.52,176.38,3.886,0.438,2.868,5.736,0.163,0.115,0,0.661,8.477,12.18,104.11,-0.17,0.05,108.1,0.07,0.51
2024-05-30 02:18:00,46.8931,-91.0429,72.77,1.69,2.47,6.3,0.44,2.14,183.47,3.946,0.541,2.884,5.897,0.19,0.169,0,0.87,8.518,12.17,104.09,-0.18,0.05,108.15,0.07,0.52
2024-05-30 02:28:01,46.8931,-91.043,154.26,1.15,1.76,6,0.65,4.78,276.26,3.678,0.442,2.9,4.721,0.178,0.155,0,0.999,8.523,12.18,104.16,-0.17,0.05,108.14,0.07,0.53
2024-05-30 02:38:02,46.8931,-91.043,107.95,1.03,1.68,5.8,-1.73,5.29,225.75,3.894,0.77,2.884,7.783,0.2,0.175,0,0.741,8.533,12.17,104.09,-0.21,0.05,108.14,0.07,0.51
2024-05-30 02:48:02,46.8931,-91.043,107.04,1.49,2.35,5.4,0.31,1.23,225.74,3.928,0.583,3.11,5.994,0.181,0.176,0,0.967,8.526,12.16,104.03,-0.23,0.05,108.13,0.07,0.49
2024-05-30 02:58:02,46.8931,-91.043,69.97,1.34,2.03,5.1,-1.31,2.24,166.47,3.723,0.34,3.11,4.786,0.173,0.196,0,0.935,8.533,12.16,104.04,-0.18,0.05,108.12,0.07,0.51
2024-05-30 03:18:04,46.8931,-91.0429,113.21,1.05,1.56,4.8,-0.76,4.18,221.71,3.698,0.321,2.997,4.721,0.165,0.152,0,0.838,8.524,12.17,104.11,-0.2,0.05,108.08,0.07,0.48
2024-05-30 03:28:05,46.8931,-91.0429,80.01,1.19,1.96,4.6,-0.6,4.26,202.71,3.857,0.445,3.013,5.559,0.186,0.174,0,0.918,8.498,12.16,103.99,-0.21,0.05,108.1,0.07,0.52
2024-05-30 03:38:24,46.893,-91.0429,118.52,1.01,1.76,4.5,-0.73,1.4,213.62,3.846,0.513,2.739,5.543,0.203,0.216,0,1.144,8.524,12.15,103.96,-0.22,0.05,108.11,0.07,0.45
2024-05-30 03:48:05,46.8931,-91.0429,74.65,1.43,2.08,4.4,2.23,2.41,208.55,3.877,0.412,2.917,5.221,0.171,0.162,0,0.886,8.546,12.17,104.15,-0.19,0.05,108.05,0.07,0.46
2024-05-30 03:58:10,46.893,-91.043,108.57,1.27,2.4,4.3,-0.95,1.87,221.97,3.747,0.413,2.965,5.124,0.193,0.191,0,0.918,8.517,12.17,104.06,-0.22,0.05,108.04,0.07,0.46
2024-05-30 04:08:07,46.8931,-91.0429,93.64,1.2,1.91,4.3,0.3,-0.26,204.34,3.959,0.55,2.981,5.736,0.172,0.144,0,0.87,8.561,12.17,104.16,-0.18,0.05,108.03,0.07,0.46
2024-05-30 04:58:11,46.8931,-91.0429,72.43,1.01,1.78,4,-1.38,1.22,191.63,4.186,0.571,3.4,6.188,0.16,0.15,0,0.854,8.581,12.16,104.19,-0.18,0.05,108.03,0.07,0.47
2024-05-30 05:18:15,46.8931,-91.0429,108.74,1.06,1.7,4,-1.66,4.4,242.14,4.123,0.516,3.126,6.268,0.164,0.15,0,0.79,8.561,12.16,104.11,-0.17,0.05,108.03,0.07,0.47
2024-05-30 05:58:14,46.8931,-91.043,129.41,0.91,1.5,5.3,-0.97,0.41,184.51,3.012,0.351,2.208,4.028,0.176,0.172,0,0.902,8.577,12.15,104.06,-0.19,0.05,108.03,0.07,0.46
2024-05-30 06:18:16,46.8931,-91.043,127.27,0.87,1.34,6,-1.53,2.91,233.27,2.561,0.816,1.676,7.332,0.163,0.156,0,0.886,8.581,12.14,104.03,-0.21,0.05,108.04,0.07,0.43
2024-05-30 06:58:23,46.893,-91.0429,68.29,0.76,1.04,7.7,-0.73,1.25,241.29,1.533,0.311,0.951,2.514,0.151,0.178,0,0.902,8.66,12.13,104.09,-0.2,0.05,108.07,0.07,0.44
2024-05-30 09:48:37,46.8932,-91.0431,329.03,3.79,5.15,10.8,-2.02,3.24,274.83,0.685,0.273,0.226,1.772,0.149,0.155,0,1.031,8.716,12.17,104.59,-0.18,0.05,108.03,0.07,0.46
2024-05-30 09:58:34,46.8931,-91.0429,343.65,3.15,4.03,10.6,-2.1,0.14,292.35,0.76,0.359,0.226,1.885,0.147,0.161,0,0.967,8.696,12.19,104.7,-0.25,0.05,108.08,0.07,0.48
2024-05-30 10:18:35,46.8931,-91.0429,297.05,3.33,4.11,10.1,-1.55,0.95,267.05,0.691,0.295,0.129,1.692,0.139,0.163,0,0.87,8.676,12.2,104.73,-0.24,0.05,108.09,0.07,0.51
2024-05-30 10:38:40,46.8931,-91.0429,312.29,3.29,4.2,9.5,0.9,3.04,272.89,0.754,0.293,0.274,1.789,0.171,0.188,0,0.918,8.662,12.21,104.78,-0.23,0.05,108.08,0.07,0.49
2024-05-30 10:48:36,46.8931,-91.0429,300.52,2.87,3.96,9.5,1.06,0.77,225.82,0.662,0.231,0.209,1.772,0.165,0.196,0,0.886,8.797,12.18,104.91,-0.23,0.05,108.07,0.07,0.44
2024-05-30 10:58:40,46.8931,-91.0429,302.92,2.89,4.5,9.6,-3.65,2.62,249.92,0.673,0.305,0.129,1.627,0.147,0.15,0,0.854,8.866,12.17,104.95,-0.24,0.05,108.05,0.07,0.46
2024-05-30 11:48:40,46.8931,-91.0429,336.84,5.09,6.84,9.4,-1.78,-3.53,296.24,0.695,0.324,0.161,1.756,0.131,0.143,0,0.886,8.837,12.19,105.11,-0.18,0.05,108.11,0.07,0.46
2024-05-30 11:58:45,46.8931,-91.0429,336.69,5.16,7.46,9.3,-2.03,5.24,291.29,0.687,0.272,0.242,1.692,0.135,0.142,0,0.79,8.791,12.2,105.08,-0.23,0.05,108.09,0.07,0.5
2024-05-30 12:08:41,46.8931,-91.0429,345.2,6.07,7.59,9.6,0.67,7.16,309.7,0.689,0.304,0.177,1.901,0.152,0.177,0,0.886,8.81,12.21,105.14,-0.21,0.05,108.11,0.07,0.44
2024-05-30 12:28:47,46.893,-91.0429,302.26,6.42,8.7,9.4,6.2,2.65,271.46,0.727,0.35,0.177,1.724,0.168,0.175,0,0.967,8.831,12.2,105.15,-0.19,0.05,108.11,0.07,0.46
2024-05-30 14:48:55,46.8931,-91.0429,329.23,6.59,8.22,9.7,3.33,5.02,298.53,0.829,0.345,0.322,1.837,0.183,0.209,0,0.838,8.28,12.35,105.02,-0.19,0.05,108.07,0.07,0.49
2024-05-30 14:59:00,46.8931,-91.0429,325.67,5.48,7.9,10,-2.13,8.83,287.87,0.875,0.353,0.258,1.885,0.152,0.157,0,0.87,8.269,12.35,105.03,-0.19,0.05,108.09,0.07,0.45
2024-05-30 16:29:08,46.8931,-91.043,354.6,2.99,4.94,11.5,-0.65,0.02,283.4,0.777,0.255,0.29,1.756,0.123,0.092,0,0.548,8.202,12.42,105.41,-0.15,0.05,108.12,0.07,0.51
2024-05-30 17:19:07,46.893,-91.0429,343.14,0.99,2.16,13.1,-5.86,7.28,243.24,0.81,0.285,0.338,1.805,0.144,0.163,0,0.886,8.461,12.39,105.87,-0.12,0.05,108.16,0.07,0.42
2024-05-30 17:49:09,46.893,-91.0429,230.77,2.34,4.15,11.2,2.52,1.4,207.37,0.751,0.301,0.209,1.805,0.159,0.168,0,0.935,8.483,12.4,106,-0.2,0.05,108.19,0.07,0.49
2024-05-30 17:59:14,46.8931,-91.0429,206.1,1.47,2.34,11,-10.04,4.43,163.7,0.738,0.289,0.242,1.66,0.156,0.171,0,0.918,8.468,12.41,106.02,-0.18,0.05,108.23,0.07,0.47
2024-05-30 18:09:10,46.8931,-91.0429,168.46,1.05,2.28,10.9,-6.6,2.89,156.76,0.818,0.388,0.113,1.772,0.156,0.199,0,1.047,8.426,12.41,105.87,-0.15,0.05,108.17,0.07,0.47
2024-05-30 18:19:14,46.8931,-91.0429,167.39,1.23,3.13,11,-1.45,0.84,163.39,0.757,0.333,0.242,1.772,0.141,0.143,0,0.902,8.337,12.41,105.7,-0.2,0.05,108.16,0.07,0.5
2024-05-30 18:29:09,46.893,-91.0429,194.08,1.33,2.37,11.2,-2.91,0.72,173.58,0.783,0.345,0.177,1.821,0.166,0.199,0,0.918,8.31,12.43,105.77,-0.17,0.05,108.18,0.07,0.46
2024-05-30 18:39:14,46.8931,-91.0429,237.66,2.08,3.1,10.5,1.83,2.71,187.36,0.797,0.273,0.258,1.708,0.146,0.154,0,0.886,8.325,12.43,105.81,-0.13,0.05,108.17,0.07,0.48
2024-05-30 18:59:11,46.893,-91.0429,73.23,0.79,1.64,10.8,-5.97,0.92,170.23,0.884,0.284,0.242,1.853,0.146,0.169,0,1.063,8.164,12.46,105.65,-0.13,0.05,108.15,0.07,0.48
2024-05-30 19:09:16,46.8931,-91.0429,202.14,1.02,1.96,10.7,5.8,4.24,153.74,1.221,0.302,0.709,2.304,0.176,0.188,0,0.918,8.178,12.46,105.7,-0.12,0.05,108.15,0.07,0.52
2024-05-30 19:29:14,46.8931,-91.0429,243.87,0.89,1.93,10.1,-0.86,0.37,156.87,1.437,0.282,0.918,2.739,0.155,0.191,0,0.999,8.208,12.45,105.68,-0.12,0.05,108.06,0.07,0.49
2024-05-30 19:49:15,46.8931,-91.0428,226.36,0.73,1.47,9.8,-1.26,1.12,154.86,2.054,0.357,1.45,3.223,0.147,0.143,0,0.854,8.174,12.49,105.92,-0.12,0.05,108.19,0.07,0.47
2024-05-30 20:19:17,46.8931,-91.0428,184.93,1.2,1.99,10.1,-10.85,1.67,156.83,2.875,0.464,1.869,4.286,0.155,0.128,0,0.741,8.782,12.35,106.34,-0.17,0.05,108.12,0.07,0.42
2024-05-30 20:49:23,46.8931,-91.0428,208.05,1.56,2.33,9.4,0.32,3.78,162.55,3.182,0.397,2.481,4.173,0.185,0.189,0,0.918,8.881,12.3,106.18,-0.14,0.05,108.1,0.07,0.42
2024-05-30 20:59:19,46.8931,-91.0428,177.77,1.33,2,9.6,0.36,3.79,155.27,2.98,0.332,2.336,4.222,0.196,0.194,0,0.854,8.872,12.34,106.4,-0.15,0.05,108.18,0.07,0.43
2024-05-30 21:09:20,46.8931,-91.0428,180.93,1.54,2.6,9.6,6.19,2.22,154.03,3.067,0.307,2.433,4.093,0.173,0.167,0,0.79,8.907,12.33,106.49,-0.13,0.05,108.19,0.07,0.44
2024-05-30 21:19:20,46.8931,-91.0428,183.17,1.57,2.44,9.7,-1.22,2.39,156.57,3.341,0.445,2.498,4.995,0.151,0.154,0,0.87,8.893,12.34,106.49,-0.15,0.05,108.18,0.07,0.38
2024-05-30 21:29:21,46.8931,-91.0428,182.89,0.73,1.5,9.5,-2.5,4.48,150.19,3.149,0.479,2.175,5.462,0.187,0.191,0,0.886,8.686,12.42,106.63,-0.09,0.05,108.23,0.07,0.45
2024-05-30 22:39:27,46.8931,-91.0428,245.64,1.97,2.93,10.2,-0.82,6.72,153.54,3.139,0.287,2.449,3.964,0.167,0.154,0,1.047,8.776,12.31,105.92,-0.12,0.05,108.13,0.07,0.41
2024-05-30 22:49:31,46.8931,-91.0428,237.84,2.36,2.96,9.7,1.31,5.18,165.24,3.239,0.447,2.401,5.092,0.192,0.185,0,0.935,8.732,12.34,106.06,-0.1,0.05,108.16,0.07,0.42
2024-05-30 23:29:30,46.8932,-91.0429,154.71,2.94,6,15.7,0.4,2.14,144.11,3.525,0.387,2.852,4.979,0.19,0.169,0,0.79,8.689,12.32,105.81,-0.06,0.05,108.11,0.07,0.42
2024-05-30 23:39:35,46.8932,-91.0428,265.85,1.97,3.28,11.6,-3.92,0.22,158.85,3.547,0.345,2.884,4.753,0.196,0.201,0,0.951,8.398,12.42,105.92,-0.08,0.05,108.15,0.07,0.49
2024-05-30 23:49:31,46.8931,-91.0429,295.93,1.08,2.52,11.7,-1.46,1.98,160.13,3.669,0.35,2.852,4.721,0.165,0.144,0,0.951,8.473,12.36,105.64,-0.13,0.05,108.06,0.07,0.48
2024-05-30 23:59:35,46.8932,-91.0429,301.79,0.99,2.06,11.5,-1.35,3,159.29,3.635,0.457,2.755,5.269,0.159,0.161,0,0.935,8.523,12.39,105.96,-0.11,0.05,108.16,0.07,0.41
2024-05-31 00:09:36,46.8931,-91.0428,348.27,0.94,3.69,12.3,-0.18,4.06,134.27,3.495,0.415,2.723,4.866,0.208,0.211,0,0.951,8.547,12.36,105.75,-0.11,0.05,108.14,0.07,0.45
2024-05-31 00:19:36,46.8931,-91.0429,165.18,3.02,5.83,16.4,0.31,1.58,147.88,3.48,0.377,2.9,4.866,0.184,0.185,0,0.951,8.736,12.29,105.65,-0.13,0.05,108.11,0.07,0.4
2024-05-31 00:29:37,46.8931,-91.0429,160.48,4.58,7.49,18.1,-1.2,2.56,140.88,3.485,0.505,2.643,5.495,0.188,0.183,0,0.854,8.756,12.27,105.57,-0.11,0.05,108.1,0.07,0.42
2024-05-31 00:39:33,46.8931,-91.0429,160.74,4.52,7.14,18.3,-0.59,2.61,139.84,3.412,0.369,2.675,4.657,0.2,0.187,0,0.854,8.808,12.27,105.7,-0.11,0.05,108.14,0.07,0.39
2024-05-31 00:49:38,46.8932,-91.0429,158.34,5.07,7.72,18.2,-1.09,3.89,138.14,3.37,0.368,2.691,4.721,0.165,0.152,0,0.79,8.751,12.28,105.64,-0.15,0.05,108.13,0.07,0.45
2024-05-31 00:59:38,46.8932,-91.0429,164.84,5.61,8.88,18.6,-0.87,2.24,142.64,3.436,0.415,2.643,4.512,0.173,0.179,0,0.886,8.916,12.25,105.79,-0.13,0.05,108.14,0.07,0.41
2024-05-31 01:09:35,46.8931,-91.0428,159.2,5.65,8.19,18.6,-0.68,3.25,138,3.523,0.311,2.836,4.399,0.173,0.14,0,0.725,8.939,12.23,105.69,-0.21,0.05,108.1,0.07,0.47
2024-05-31 01:19:35,46.8931,-91.0429,156.57,5.6,7.67,18.5,1.96,2.76,135.37,3.523,0.554,2.82,6.51,0.181,0.154,0,0.822,9.012,12.21,105.71,-0.12,0.05,108.14,0.07,0.43
2024-05-31 01:29:36,46.8931,-91.0429,166.09,5.18,8.39,18.4,2.47,9.07,143.59,3.575,0.398,2.771,4.673,0.184,0.169,0,0.854,8.923,12.24,105.75,-0.23,0.05,108.15,0.07,0.44
2024-05-31 01:39:36,46.8931,-91.0428,165.79,4.44,7.63,18.2,-1.81,1.51,141.99,3.581,0.323,3.013,5.076,0.183,0.142,0,0.854,8.991,12.23,105.79,-0.24,0.05,108.17,0.07,0.43
2024-05-31 01:49:36,46.8931,-91.0429,189.19,3.04,5.54,17.3,-0.41,2.25,141.29,3.776,0.392,3.158,5.221,0.183,0.187,0,0.87,8.883,12.24,105.63,-0.2,0.05,108.15,0.07,0.46
2024-05-31 01:59:37,46.8931,-91.0428,186.08,1.76,2.63,16.3,-1.09,4.19,143.98,3.858,0.454,3.126,5.543,0.172,0.153,0,0.935,8.765,12.28,105.63,-0.19,0.05,108.15,0.07,0.46
2024-05-31 02:09:37,46.8931,-91.0428,233.46,1.22,2.26,15.2,-1.98,0.51,148.46,3.849,0.366,3.013,5.043,0.15,0.114,0,0.806,8.663,12.3,105.59,-0.23,0.05,108.14,0.07,0.47
2024-05-31 02:19:38,46.8931,-91.0428,314.96,1.23,2.62,12.3,-0.78,3.18,151.56,3.822,0.419,2.949,5.06,0.211,0.219,0,0.886,8.722,12.28,105.53,-0.2,0.05,108.1,0.07,0.47
2024-05-31 02:39:39,46.8931,-91.0428,357.48,1.55,2.26,11.5,1.56,0.53,155.08,3.705,0.372,2.884,5.027,0.19,0.163,0,0.918,8.719,12.28,105.52,-0.21,0.05,108.1,0.07,0.4
2024-05-31 02:49:59,46.8932,-91.0428,72.64,0.64,1.24,12,-2.71,1.24,164.94,3.875,0.405,3.094,5.108,0.205,0.203,0,0.886,8.747,12.27,105.54,-0.19,0.05,108.09,0.07,0.42
2024-05-31 02:59:45,46.8931,-91.0428,113.17,0.73,1.73,12.3,-2,1.41,164.17,3.709,0.383,2.981,4.705,0.166,0.169,0,0.87,8.799,12.26,105.56,-0.22,0.05,108.08,0.07,0.41
2024-05-31 03:09:41,46.8931,-91.043,338.83,1.11,2.02,11.7,-0.34,1.2,161.03,3.563,0.362,2.836,4.576,0.159,0.163,0,1.015,8.884,12.23,105.52,-0.22,0.05,108.06,0.07,0.4
2024-05-31 03:19:41,46.8931,-91.0429,15.68,1.02,2.46,11.4,-0.2,2.18,186.78,3.69,0.387,2.997,4.786,0.179,0.174,0,0.87,8.911,12.22,105.53,-0.18,0.05,108.07,0.07,0.38
2024-05-31 03:29:42,46.8931,-91.0429,120.64,0.91,3.62,12.1,-1.87,2.71,161.44,3.585,0.397,2.868,5.43,0.147,0.102,0,0.516,8.934,12.22,105.53,-0.19,0.05,108.07,0.07,0.37
2024-05-31 03:49:43,46.8933,-91.0429,165.47,2.98,4.52,16.6,-4,2.3,152.37,3.562,0.386,2.917,5.043,0.182,0.172,0,0.838,8.969,12.21,105.54,-0.21,0.05,108.08,0.07,0.44
2024-05-31 03:59:48,46.8932,-91.0429,157.9,2.32,4.53,16.5,-0.64,3.86,147.1,3.641,0.418,2.917,5.221,0.163,0.152,0,0.918,8.989,12.2,105.56,-0.2,0.05,108.09,0.07,0.37
2024-05-31 04:09:43,46.8932,-91.0429,146.8,2.19,3.08,15.9,0.35,0.91,147.5,3.678,0.403,2.917,5.366,0.177,0.16,0,0.854,9.003,12.21,105.68,-0.22,0.05,108.1,0.07,0.42
2024-05-31 04:19:44,46.8932,-91.0429,152.08,2.07,2.98,16.2,0.76,2.27,150.68,3.758,0.433,2.739,4.995,0.161,0.147,0,0.902,9.007,12.21,105.67,-0.25,0.05,108.09,0.07,0.39
2024-05-31 04:29:49,46.8931,-91.0429,278.16,1.77,2.98,14,-1.78,2.01,223.16,3.697,0.37,3.062,4.979,0.2,0.204,0,0.983,9.095,12.19,105.67,-0.21,0.05,108.05,0.07,0.4
2024-05-31 04:49:46,46.8931,-91.0429,323.56,1.41,2.08,11.2,-1.64,0.53,192.36,3.843,0.354,3.142,5.285,0.183,0.157,0,0.87,9.116,12.17,105.62,-0.25,0.05,108.07,0.07,0.38
2024-05-31 04:59:46,46.8931,-91.0428,37.72,0.63,1.35,11.4,-2.14,1.9,182.62,3.872,0.408,3.174,5.333,0.215,0.204,0,0.967,9.12,12.18,105.67,-0.2,0.05,108.08,0.07,0.36
2024-05-31 05:09:46,46.8931,-91.0428,126.9,1.02,1.69,11.7,-3.44,2.08,139.8,3.973,0.505,3.126,5.946,0.183,0.174,0,1.015,9.115,12.18,105.71,-0.23,0.05,108.08,0.07,0.43
2024-05-31 05:19:51,46.8932,-91.0429,151.41,3.4,6.09,15.6,-0.67,3.24,134.21,4.029,0.419,3.352,5.14,0.201,0.188,0,0.854,9.114,12.19,105.73,-0.22,0.05,108.08,0.07,0.42
2024-05-31 05:29:51,46.8931,-91.0428,176.15,3.81,5.67,16.8,0.56,2.5,155.25,3.931,0.465,3.078,6.107,0.166,0.126,0,0.806,9.115,12.18,105.69,-0.23,0.05,108.09,0.07,0.39
2024-05-31 05:39:52,46.8931,-91.0429,165.38,3.73,6.36,16.7,-0.99,0.88,143.88,4.202,0.631,3.174,6.204,0.166,0.152,0,0.935,9.126,12.18,105.72,-0.24,0.05,108.1,0.07,0.38
2024-05-31 05:49:52,46.8931,-91.0428,176.02,3.97,6.03,17,-1.44,0.99,151.22,3.992,0.462,3.142,5.72,0.17,0.157,0,0.822,9.141,12.17,105.69,-0.24,0.05,108.1,0.07,0.63
2024-05-31 05:59:48,46.8931,-91.0429,168.96,4.42,7.08,17.1,-1.77,1.67,147.76,3.492,0.414,2.643,4.721,0.162,0.171,0,0.87,9.168,12.17,105.69,-0.27,0.05,108.1,0.07,0.46
2024-05-31 06:19:49,46.8931,-91.0429,179.96,2.89,5.1,16.8,-1.19,2.44,148.66,2.273,0.349,1.418,3.561,0.151,0.141,0,0.886,9.18,12.17,105.74,-0.24,0.05,108.11,0.07,0.49
2024-05-31 06:29:49,46.8931,-91.0429,237.8,2.18,3.96,15.6,-3.07,2.42,158.7,1.899,0.378,1.192,2.997,0.175,0.175,0,0.838,9.184,12.17,105.77,-0.24,0.05,108.11,0.07,0.48
2024-05-31 06:39:49,46.8931,-91.0428,237.97,1.97,3.19,14.1,-0.71,3.88,157.87,1.942,0.296,1.466,2.868,0.132,0.12,0,0.79,9.19,12.17,105.8,-0.23,0.05,108.1,0.07,0.49
2024-05-31 07:19:52,46.8931,-91.0429,173.16,4.65,7.78,17,0.87,6.99,148.76,1.711,0.29,1.063,2.53,0.137,0.123,0,0.677,9.217,12.17,105.88,-0.25,0.05,108.1,0.07,0.45
2024-05-31 07:29:52,46.8931,-91.0429,170.73,5.21,7.82,17.4,-1.06,4.01,145.13,1.064,0.305,0.564,1.95,0.138,0.174,0,0.951,9.212,12.17,105.8,-0.22,0.05,108.11,0.07,0.5
2024-05-31 07:39:57,46.8932,-91.0429,180.12,5.59,9.49,17.4,-0.12,3.95,157.62,1.651,0.302,1.096,2.755,0.162,0.155,0,0.902,9.222,12.16,105.8,-0.26,0.05,108.12,0.07,0.49
2024-05-31 08:09:58,46.8932,-91.0428,181.19,4.78,8.4,16.9,0.56,7.09,151.99,1.28,0.298,0.709,2.272,0.154,0.151,0,0.886,9.225,12.16,105.82,-0.24,0.05,108.1,0.07,0.62
2024-05-31 08:19:55,46.8931,-91.0428,186.16,4,6.86,17.3,-1.84,4.62,158.36,0.82,0.287,0.258,1.853,0.165,0.199,0,0.999,9.215,12.17,105.89,-0.23,0.05,108.11,0.07,0.56
2024-05-31 08:29:55,46.8931,-91.0428,202.64,6.01,9.17,17.7,1.17,-1.75,174.14,0.817,0.306,0.258,1.837,0.154,0.173,0,0.886,9.216,12.17,105.88,-0.26,0.05,108.11,0.07,0.57
2024-05-31 08:39:56,46.8932,-91.0428,182.29,6.83,8.94,17.7,6.98,13.75,155.09,0.916,0.29,0.419,1.998,0.186,0.194,0,0.854,9.229,12.17,105.89,-0.26,0.05,108.14,0.07,0.5
2024-05-31 08:49:55,46.8931,-91.0428,196.13,6.35,9.64,16.9,4.79,5.69,161.33,1.081,0.265,0.564,2.014,0.141,0.144,0,0.886,9.21,12.18,105.87,-0.24,0.05,108.12,0.07,0.5
2024-05-31 09:00:00,46.8931,-91.0429,203.94,6.63,9.6,16.8,-3.06,1.22,167.24,1.166,0.373,0.387,2.208,0.165,0.205,0,1.047,9.217,12.17,105.86,-0.24,0.05,108.11,0.07,0.47
2024-05-31 09:09:57,46.8931,-91.0429,196.16,6.52,9.1,16.6,0.01,0.14,163.06,1.14,0.28,0.516,2.046,0.147,0.156,0,1.031,9.235,12.16,105.8,-0.23,0.05,108.12,0.07,0.43
2024-05-31 09:19:57,46.8932,-91.0428,211.59,5.44,9.11,16.7,4.82,3.66,174.99,1.308,0.293,0.773,2.288,0.161,0.189,0,0.918,9.289,12.14,105.81,-0.21,0.05,108.12,0.07,0.45
2024-05-31 09:29:57,46.8931,-91.0428,189.68,5.45,8.82,16.7,1.31,6.23,154.78,1.877,0.329,1.305,2.836,0.183,0.19,0,0.967,9.32,12.13,105.77,-0.26,0.05,108.12,0.07,0.43
2024-05-31 09:49:59,46.8931,-91.0428,200.94,5.97,8.99,16.6,-3.4,-2.28,162.44,1.634,0.267,1.047,2.498,0.151,0.131,0,0.838,9.44,12.09,105.72,-0.27,0.05,108.12,0.07,0.43
2024-05-31 09:59:59,46.8932,-91.0428,205.1,4.07,5.83,15.8,-3.22,6.08,153.8,1.849,0.294,1.305,2.82,0.136,0.114,0,0.677,9.487,12.09,105.81,-0.23,0.05,108.15,0.07,0.4
2024-05-31 10:10:00,46.8931,-91.0428,216.4,3.57,6.68,15.2,-1.54,3.56,164.4,1.701,0.297,1.225,2.739,0.128,0.139,0,0.79,9.509,12.09,105.86,-0.26,0.05,108.15,0.07,0.39
2024-05-31 10:20:00,46.8931,-91.0428,188.7,5.02,8.34,15.3,-0.89,1.11,156.8,1.252,0.306,0.79,2.272,0.166,0.191,0,0.935,9.52,12.08,105.85,-0.28,0.05,108.14,0.07,0.38
2024-05-31 10:30:01,46.8931,-91.0428,172.05,4.06,5.87,15.3,0.6,5.76,142.65,1.828,0.282,1.144,2.852,0.204,0.231,0,1.031,9.527,12.08,105.89,-0.25,0.05,108.16,0.07,0.37
2024-05-31 10:40:01,46.8931,-91.0428,178.07,3.52,5.86,15.1,-0.45,-1.05,149.27,2.046,0.324,1.499,3.271,0.135,0.113,0,0.886,9.582,12.06,105.83,-0.26,0.05,108.16,0.07,0.38
2024-05-31 10:50:01,46.8931,-91.0428,173.05,3.32,5.21,14.8,-1.94,4.24,141.65,1.595,0.346,1.031,2.659,0.175,0.205,0,1.015,9.549,12.07,105.84,-0.25,0.05,108.18,0.07,0.42
2024-05-31 11:10:06,46.8932,-91.0428,170.6,3.98,5.89,15,-2.96,6.5,142.2,0.929,0.304,0.209,1.901,0.131,0.118,0,0.677,9.511,12.09,105.88,-0.29,0.05,108.37,0.07,0.52
2024-05-31 12:00:06,46.8932,-91.0428,191.61,3.39,5.11,15.4,-0.85,0.44,138.01,0.934,0.295,0.371,1.966,0.137,0.153,0,0.886,9.742,12.07,106.33,-0.28,0.05,108.67,0.07,0.51
2024-05-31 12:10:06,46.8932,-91.0428,218.53,3.46,5.48,15.2,-2.02,3.74,145.53,1.008,0.332,0.516,1.982,0.157,0.157,0,0.757,9.753,12.08,106.42,-0.29,0.05,108.71,0.07,0.47
2024-05-31 12:20:06,46.8931,-91.0429,208.3,4.33,5.55,15.1,-4.32,10.1,133.8,1.037,0.327,0.516,2.191,0.157,0.193,0,0.902,9.688,12.11,106.52,-0.28,0.05,108.75,0.07,0.46
2024-05-31 12:30:07,46.8931,-91.0429,207.38,4.36,6.05,15.3,0.79,3.15,141.68,0.943,0.254,0.387,2.014,0.135,0.147,0,0.87,9.67,12.11,106.48,-0.3,0.05,108.63,0.07,0.48
2024-05-31 12:50:08,46.8932,-91.0429,186.19,3.65,4.95,16.2,-0.32,4.28,137.09,1.077,0.309,0.58,2.062,0.176,0.206,0,0.902,9.097,12.23,106.08,-0.22,0.05,108.29,0.07,0.49
2024-05-31 13:10:08,46.8932,-91.0428,168.59,3.81,5.59,16.3,-0.17,6.45,134.89,0.959,0.346,0.451,1.982,0.13,0.146,0,0.918,9.033,12.24,106,-0.27,0.05,108.22,0.07,0.5
2024-05-31 13:20:08,46.8932,-91.0428,165.67,4.61,7.06,17.1,-2.57,1.33,140.77,0.923,0.343,0.387,1.901,0.168,0.177,0,0.854,8.96,12.24,105.85,-0.24,0.05,108.16,0.07,0.45
2024-05-31 13:50:14,46.8931,-91.0428,182.22,3.27,5.22,17.9,-0.53,3.13,139.42,0.828,0.341,0.032,1.837,0.137,0.131,0,0.918,9.204,12.22,106.28,-0.26,0.05,108.25,0.07,0.5
2024-05-31 14:20:16,46.8931,-91.0428,257.97,1.71,2.32,17,-0.86,2.23,140.17,0.713,0.28,0.161,1.772,0.134,0.153,0,0.902,9.24,12.23,106.4,-0.25,0.05,108.22,0.07,0.49
2024-05-31 15:40:22,46.8932,-91.0428,127.16,0.68,1.14,18.4,-1.93,2.38,141.76,0.639,0.306,0.097,1.627,0.145,0.155,0,0.87,9.479,12.17,106.52,-0.27,0.05,108.11,0.07,0.43
2024-05-31 16:00:23,46.8931,-91.0428,266.52,0.54,1.36,19.8,-0.57,1.85,145.32,0.565,0.223,0.064,1.482,0.143,0.171,0,0.886,9.543,12.17,106.72,-0.25,0.05,108.08,0.07,0.4
2024-05-31 16:10:24,46.8931,-91.0429,261.2,0.51,1.17,19.8,-1.46,2.68,144.1,0.648,0.279,0.193,1.644,0.138,0.135,0,0.79,9.641,12.15,106.75,-0.25,0.05,108.03,0.07,0.43
2024-05-31 16:20:25,46.8932,-91.0429,218.51,1.68,2.83,19,-1.06,1.56,147.41,0.652,0.322,0.129,1.627,0.147,0.167,0,0.999,9.56,12.18,106.77,-0.27,0.05,108.09,0.07,0.44
2024-05-31 16:30:39,46.8931,-91.0429,209.29,1.86,2.61,19.6,-1.05,1.48,145.39,0.566,0.306,0.097,1.644,0.132,0.144,0,0.886,9.612,12.15,106.7,-0.22,0.05,108.08,0.07,0.48
2024-05-31 16:50:23,46.8931,-91.0429,188.42,3.07,6.38,20.2,-1.08,2.23,141.02,0.653,0.349,0.145,1.563,0.159,0.186,0,1.063,9.6,12.16,106.71,-0.26,0.05,108.1,0.07,0.52
2024-05-31 17:00:23,46.8931,-91.0428,175.1,3.44,4.96,21.1,0.09,3.54,140.1,0.695,0.26,0.258,1.772,0.152,0.174,0,0.967,9.613,12.16,106.75,-0.24,0.05,108.11,0.07,0.44
2024-05-31 17:10:28,46.8931,-91.0429,181,3.19,4.5,20.5,-0.63,2.96,140.7,0.824,0.303,0.354,1.724,0.145,0.155,0,0.902,9.64,12.16,106.83,-0.23,0.05,108.12,0.07,0.45
2024-05-31 17:20:28,46.8931,-91.0429,176.21,2.55,3.04,20,-1.86,4.08,136.61,0.923,0.363,0.435,1.998,0.156,0.171,0,0.951,9.61,12.16,106.78,-0.29,0.05,108.11,0.07,0.43
2024-05-31 17:30:25,46.8931,-91.0429,175.64,2.34,3.18,19.8,-1.11,3.67,140.04,0.973,0.271,0.435,1.998,0.148,0.182,0,0.999,9.661,12.15,106.8,-0.23,0.05,108.11,0.07,0.53
2024-05-31 17:50:25,46.8931,-91.0429,177.98,2.6,3.41,19.4,-0.55,2.3,136.98,0.883,0.313,0.306,1.917,0.143,0.154,0,0.935,9.731,12.15,106.95,-0.26,0.05,108.11,0.07,0.53
2024-05-31 18:00:30,46.8932,-91.0429,170.17,2.83,4.91,20.6,-1.48,1.12,136.37,0.616,0.271,0.161,1.611,0.152,0.184,0,0.822,9.808,12.13,107.01,-0.28,0.05,108.12,0.07,0.53
2024-05-31 18:10:27,46.8932,-91.0429,169.14,3.68,7.13,20.7,-0.6,2.07,139.24,0.823,0.328,0.242,1.805,0.135,0.129,0,0.854,9.927,12.12,107.21,-0.25,0.05,108.12,0.07,0.43
2024-05-31 18:20:27,46.8932,-91.0429,166.81,5.32,9.03,20.8,-0.77,1.11,142.71,1.048,0.264,0.58,1.95,0.173,0.187,0,0.951,9.951,12.09,106.99,-0.26,0.05,108.03,0.07,0.46
2024-05-31 18:30:28,46.8932,-91.0429,157.31,4.01,5.93,20.9,-0.98,3.33,134.01,1.214,0.273,0.628,2.143,0.144,0.129,0,0.628,10.208,12.08,107.54,-0.28,0.05,108.09,0.07,0.35
2024-05-31 18:40:32,46.8932,-91.0429,162.29,3.09,4.51,20.4,-2.31,1.26,134.79,1.294,0.29,0.661,2.353,0.126,0.117,0,0.902,10.193,12.08,107.53,-0.28,0.05,108.12,0.07,0.38
2024-05-31 19:00:30,46.8932,-91.0429,146.41,2.84,4.04,20.5,-1.95,3.83,129.91,1.686,0.291,0.951,2.771,0.146,0.15,0,0.838,10.328,12.05,107.6,-0.33,0.05,108.11,0.07,0.38
2024-05-31 19:20:35,46.8932,-91.0429,151.18,2.89,4.38,20.1,-0.83,3.36,134.28,2.331,0.272,1.756,3.207,0.182,0.161,0,0.886,10.291,12.06,107.57,-0.3,0.05,108.11,0.07,0.38
2024-05-31 19:30:31,46.8932,-91.0429,150.23,2.88,4.48,19.8,-1.3,2.08,133.73,2.404,0.338,1.756,3.899,0.144,0.122,0,0.806,10.173,12.08,107.52,-0.25,0.05,108.13,0.07,0.45
2024-05-31 19:40:36,46.8931,-91.0429,137.65,2.78,4.4,19.6,-1.16,2.23,124.75,2.598,0.326,1.95,3.738,0.168,0.176,0,0.951,10.068,12.11,107.45,-0.24,0.05,108.18,0.07,0.49
2024-05-31 19:50:36,46.8932,-91.0429,134.54,2.57,4.05,19.5,-1.86,2.37,128.24,2.738,0.345,2.159,3.964,0.147,0.127,0,0.725,10.307,12.06,107.65,-0.25,0.05,108.1,0.07,0.48
2024-05-31 20:10:37,46.8931,-91.0429,134.34,2.49,3.05,19.1,-0.09,2.23,128.54,2.931,0.34,2.256,3.964,0.173,0.178,0,1.047,10.412,12.04,107.74,-0.27,0.05,108.15,0.07,0.43
2024-05-31 21:10:37,46.8931,-91.0429,63.46,0.61,1.03,16.5,-1.66,2.09,132.86,3.624,0.904,2.481,7.219,0.199,0.175,0,0.918,10.38,12.05,107.69,-0.25,0.05,108.15,0.07,0.45
2024-05-31 21:30:41,46.8931,-91.0429,350.96,1.84,5.23,15.4,-0.41,0.45,110.86,3.335,0.382,2.433,4.367,0.189,0.192,0,0.999,10.421,12.03,107.69,-0.26,0.05,108.15,0.07,0.49
2024-05-31 21:40:43,46.8931,-91.0428,70.55,3.71,4.87,12.6,-2.99,3.04,200.45,3.381,0.374,2.707,4.641,0.187,0.206,0,1.063,10.399,12.04,107.73,-0.26,0.05,108.14,0.07,0.48
2024-05-31 21:50:42,46.8931,-91.0429,328.08,1.9,3.21,12.6,-2.52,2.45,134.48,3.348,0.311,2.594,4.222,0.165,0.146,0,0.918,10.39,12.04,107.7,-0.27,0.05,108.14,0.07,0.52
2024-05-31 22:00:39,46.8931,-91.0429,20.89,1.94,2.73,12.7,-0.51,2.93,137.79,3.362,0.368,2.578,4.254,0.148,0.12,0,0.854,10.348,12.06,107.72,-0.26,0.05,108.15,0.07,0.51
2024-05-31 22:10:44,46.8931,-91.0428,142.97,0.7,1.32,13.4,0.07,1.2,157.17,3.321,0.403,2.514,4.915,0.156,0.107,0,0.854,10.318,12.06,107.68,-0.25,0.05,108.15,0.07,0.48
2024-05-31 22:20:39,46.8931,-91.0429,45.05,0.71,1.74,12.7,-1.23,1.82,141.85,3.411,0.349,2.691,4.334,0.18,0.157,0,0.886,10.292,12.06,107.63,-0.28,0.05,108.15,0.07,0.49
2024-05-31 22:30:40,46.8932,-91.0429,167.09,1.02,1.37,12.8,-1.52,1.7,143.09,3.436,0.401,2.626,4.625,0.166,0.163,0,0.902,10.273,12.06,107.58,-0.25,0.05,108.15,0.07,0.52
2024-05-31 22:40:41,46.8932,-91.0429,178.17,1.25,1.74,12.2,-1.01,2.04,142.87,3.447,0.359,2.739,4.592,0.185,0.183,0,0.886,10.254,12.07,107.59,-0.29,0.05,108.15,0.07,0.49
2024-05-31 22:50:40,46.8932,-91.0429,153.17,1.18,1.63,13.3,0.15,2.66,139.77,3.5,0.417,2.691,4.866,0.197,0.204,0,0.918,10.245,12.07,107.57,-0.22,0.05,108.15,0.07,0.5
2024-05-31 23:00:41,46.8932,-91.0429,156.43,1.05,2.33,15.9,-1.78,2.18,146.03,3.499,0.416,2.788,4.576,0.178,0.157,0,0.87,10.25,12.06,107.5,-0.26,0.05,108.18,0.07,0.48
2024-05-31 23:11:01,46.8931,-91.0429,237.65,0.74,1.29,15.6,-2.17,0.94,146.95,3.489,0.34,2.804,4.512,0.182,0.199,0,0.999,10.203,12.08,107.52,-0.24,0.05,108.16,0.07,0.51
2024-05-31 23:20:42,46.8931,-91.0429,251.74,0.82,1.17,15.9,-1.32,2.08,139.84,3.454,0.371,2.755,4.56,0.176,0.165,0,0.902,10.201,12.08,107.54,-0.29,0.05,108.15,0.07,0.52
2024-05-31 23:40:42,46.8932,-91.0429,286.6,1.22,1.87,14.7,-1.77,0.45,157.2,3.604,0.591,2.626,6.139,0.193,0.206,0,1.096,10.187,12.08,107.49,-0.22,0.05,108.17,0.07,0.5
2024-06-01 00:00:43,46.8932,-91.0429,12.21,1.04,1.44,14.6,-1.61,1.64,144.71,3.368,0.323,2.562,4.576,0.217,0.228,0,0.951,10.142,12.08,107.41,-0.24,0.05,108.17,0.07,0.48
2024-06-01 00:10:44,46.8932,-91.0429,18.75,0.78,1.46,14.9,-1.67,1.7,139.65,3.6,0.41,2.981,4.608,0.195,0.183,0,0.838,10.321,12.04,107.48,-0.25,0.05,108.19,0.07,0.47
2024-06-01 00:20:44,46.8932,-91.0429,58.63,0.73,1.42,14.9,-1.8,0.95,134.33,3.481,0.444,2.626,4.979,0.163,0.158,0,0.967,10.349,12.03,107.52,-0.24,0.05,108.18,0.07,0.47
2024-06-01 00:30:44,46.893,-91.0429,170.32,0.75,2.78,15.4,-1.28,2.81,142.22,3.474,0.291,2.691,4.238,0.177,0.174,0,0.87,10.344,12.02,107.42,-0.23,0.05,108.19,0.07,0.48
2024-06-01 00:40:44,46.893,-91.0429,217.24,2.22,3.33,15.6,-1.09,2.39,147.74,3.474,0.455,2.594,4.705,0.179,0.186,0,0.967,10.336,12.02,107.33,-0.24,0.05,108.22,0.07,0.49
2024-06-01 01:00:46,46.8931,-91.0429,224.46,2.78,4.31,13.6,-1.11,2.05,149.76,3.628,0.391,2.997,4.576,0.17,0.174,0,0.935,10.228,12.04,107.3,-0.25,0.05,108.21,0.07,0.49
2024-06-01 02:00:51,46.8931,-91.0429,146.6,1.2,2.2,14.4,-1.35,1.21,147,3.531,0.429,2.804,4.689,0.182,0.156,0,0.87,10.141,12.06,107.24,-0.26,0.05,108.21,0.07,0.52
2024-06-01 02:10:51,46.8931,-91.0428,264.3,1.61,2.45,13.3,-0.5,2.2,143.1,3.652,0.473,2.691,4.882,0.197,0.203,0,0.87,10.088,12.06,107.09,-0.23,0.05,108.16,0.07,0.49
2024-06-01 02:20:51,46.8932,-91.0429,111.3,1,2.29,13.6,-0.97,1.75,132,3.836,0.928,2.804,8.347,0.166,0.147,0,0.854,10.03,12.08,107.12,-0.23,0.05,108.18,0.07,0.54
2024-06-01 02:30:52,46.8932,-91.0429,133.55,1.81,2.36,14.2,-1.15,2.48,133.45,3.777,0.481,2.981,5.559,0.19,0.176,0,0.935,9.958,12.11,107.17,-0.25,0.05,108.17,0.07,0.5
2024-06-01 02:50:58,46.8932,-91.0428,134.04,1.58,2.02,14.5,-1.28,2.21,135.24,3.506,0.341,2.9,4.641,0.17,0.155,0,0.854,10.073,12.05,106.97,-0.25,0.05,108.1,0.07,0.54
2024-06-01 03:10:55,46.8932,-91.0428,187.76,0.86,1.41,14,-1.16,1.96,143.36,3.607,0.364,2.755,4.818,0.155,0.13,0,0.838,10.115,12.01,106.68,-0.24,0.05,107.87,0.07,0.47
2024-06-01 03:20:55,46.8932,-91.0428,203.3,0.83,1.14,14.1,-1.06,1.74,147.4,3.651,0.408,2.965,4.834,0.156,0.136,0,0.854,10.081,12.02,106.76,-0.25,0.05,107.77,0.07,0.49
2024-06-01 03:30:56,46.8932,-91.0428,122.45,0.75,1.96,14.2,-1.8,1.73,128.55,3.6,0.446,2.723,5.221,0.182,0.169,0,0.79,10.287,11.96,106.67,-0.26,0.05,107.63,0.07,0.55
2024-06-01 03:40:56,46.8931,-91.0429,131.62,1.51,2.11,14.8,-1.1,2.12,143.12,3.612,0.384,2.836,5.124,0.171,0.153,0,0.87,10.351,11.95,106.72,-0.26,0.05,107.69,0.07,0.47
2024-06-01 03:50:56,46.8932,-91.0429,289.48,1.37,3.51,14.2,-1.94,2.54,186.28,3.606,0.356,2.82,4.641,0.163,0.149,0,0.838,10.329,11.96,106.8,-0.27,0.05,107.76,0.07,0.47
2024-06-01 04:10:57,46.8931,-91.0429,340.73,3.75,5.26,11.3,-2.61,2.32,261.43,3.585,0.34,2.788,4.56,0.202,0.159,0,0.838,10.285,11.97,106.81,-0.25,0.05,107.77,0.07,0.45
2024-06-01 04:30:47,46.8931,-91.0428,354.69,1.48,2.1,12.2,-2.44,1.97,193.49,3.635,0.438,2.788,4.963,0.174,0.168,0,0.999,10.291,11.97,106.79,-0.26,0.05,101.71,0.07,2.51
2024-06-01 04:40:58,46.8932,-91.0428,28.61,0.84,1.48,12.3,-0.65,2.5,159.91,3.701,0.416,2.868,4.786,0.216,0.22,0,0.886,10.199,12.01,106.89,-0.24,0.05,107.84,0.07,0.51
2024-06-01 04:51:00,46.8932,-91.0428,204.68,1.62,2.1,11.2,-1.96,1.87,171.28,3.573,0.384,2.546,5.011,0.196,0.192,0,0.935,10.181,12.01,106.92,-0.22,0.05,107.87,0.07,0.38
2024-06-01 05:01:00,46.8931,-91.0428,218.43,0.93,1.37,11.1,-1.35,1.86,187.73,3.655,0.329,2.852,4.641,0.175,0.18,0,0.967,10.159,12,106.73,-0.28,0.05,107.71,0.07,0.46
2024-06-01 05:11:01,46.8931,-91.0428,220.89,0.81,1.1,11.2,-0.59,1.59,174.69,3.793,0.379,2.9,5.092,0.161,0.126,0,0.773,10.158,12,106.73,-0.24,0.05,107.73,0.07,0.47
2024-06-01 05:21:01,46.8931,-91.0428,281.49,1.38,1.94,11,-2.07,0.6,177.19,3.752,0.394,2.9,4.882,0.197,0.199,0,0.918,10.127,12.01,106.74,-0.22,0.05,107.82,0.07,0.45
2024-06-01 05:31:01,46.8931,-91.0428,320.45,2,2.95,10.9,-1.19,2.78,234.75,3.627,0.441,2.804,4.866,0.165,0.169,0,0.951,10.117,12.01,106.75,-0.27,0.05,107.84,0.07,0.39
2024-06-01 05:41:05,46.8931,-91.0429,284.82,2.55,3.73,11.4,-1.7,1.83,199.92,3.833,0.388,3.029,4.931,0.181,0.156,0,0.902,10.111,12.02,106.75,-0.25,0.05,107.89,0.07,0.45
2024-06-01 05:51:02,46.8931,-91.0429,216.65,1.3,3.78,11.9,-1.48,2.13,183.95,4.034,0.55,3.094,5.801,0.171,0.139,0,0.854,10.085,12.03,106.81,-0.23,0.05,107.93,0.07,0.46
2024-06-01 06:01:06,46.8931,-91.0429,138.17,0.58,0.92,11.5,-1.97,1.22,182.37,3.655,0.441,2.884,4.77,0.167,0.148,0,0.854,10.087,12.03,106.8,-0.25,0.05,107.92,0.07,0.54
2024-06-01 06:11:02,46.8931,-91.0429,121.84,0.6,0.8,11.8,-1.34,2.65,171.44,3.483,0.328,2.675,4.431,0.187,0.182,0,0.838,10.071,12.02,106.7,-0.27,0.05,107.87,0.07,0.45
2024-06-01 06:21:03,46.8931,-91.0429,213.51,0.69,1.05,12,-1.22,2.07,178.31,3.5,0.385,2.659,4.415,0.195,0.179,0,0.854,10.066,12.02,106.64,-0.24,0.05,107.8,0.07,0.46
2024-06-01 06:31:03,46.8931,-91.0429,278.36,0.99,1.28,11.7,-0.91,1.94,202.36,3.284,0.333,2.32,4.302,0.176,0.179,0,0.886,10.052,12.02,106.68,-0.26,0.05,107.8,0.07,0.55
2024-06-01 06:41:03,46.8931,-91.0429,269.63,0.94,1.16,11.4,-0.45,1.85,194.03,3.417,0.457,2.546,5.011,0.179,0.158,0,0.741,10.042,12.05,106.9,-0.24,0.05,107.9,0.07,0.47
2024-06-01 06:51:04,46.8931,-91.0429,150,0.44,0.75,11.3,-1.43,1.35,173.9,3.17,0.438,2.32,4.689,0.18,0.156,0,0.773,10.058,12.04,106.84,-0.26,0.05,107.83,0.07,0.48
2024-06-01 07:11:10,46.8931,-91.0428,41.58,1.05,3.95,11.8,-1.41,3.59,269.48,3.651,0.485,2.836,5.172,0.189,0.158,0,0.757,10.005,12.06,106.86,-0.22,0.05,107.86,0.07,0.47
2024-06-01 07:21:10,46.8931,-91.0428,326.26,2.01,4.48,12.1,-1.3,1.47,215.56,3.883,0.521,2.981,6.22,0.152,0.132,0,0.773,10.011,12.05,106.83,-0.25,0.05,107.84,0.07,0.49
2024-06-01 07:31:07,46.8931,-91.0429,159.36,0.81,1.9,12.1,-2.39,2.52,199.86,3.696,0.392,2.933,4.898,0.192,0.199,0,0.806,10.019,12.05,106.83,-0.27,0.05,107.85,0.07,0.48
2024-06-01 07:41:07,46.8931,-91.0429,199.01,1.05,1.56,11.5,-0.55,2.28,178.81,3.38,0.641,2.481,5.769,0.188,0.172,0,0.79,10.014,12.05,106.84,-0.26,0.05,107.86,0.07,0.45
2024-06-01 07:51:07,46.8931,-91.0429,218.79,1.36,1.69,11.1,-3.52,1.32,173.79,3.224,0.379,2.498,4.479,0.188,0.206,0,1.063,10.002,12.06,106.85,-0.23,0.05,107.86,0.07,0.44
2024-06-01 08:01:07,46.8931,-91.0429,172.93,0.61,0.82,11.3,-1.33,1.14,152.03,3.029,0.444,1.95,4.673,0.162,0.171,0,0.983,9.998,12.06,106.86,-0.25,0.05,107.87,0.07,0.47
2024-06-01 08:11:07,46.8931,-91.0429,153.42,0.95,1.4,11.2,0.07,1.82,160.82,2.661,0.36,1.772,3.69,0.169,0.165,0,0.918,9.997,12.07,106.91,-0.26,0.05,107.88,0.07,0.49
2024-06-01 08:21:08,46.8931,-91.0429,249.19,0.99,1.3,11.1,-1.22,1.98,181.19,2.591,0.283,1.966,3.432,0.15,0.134,0,0.902,10.008,12.06,106.86,-0.28,0.05,107.87,0.07,0.47
2024-06-01 08:31:08,46.8931,-91.0429,167.25,0.76,1.37,11.4,-1.54,1.75,149.75,2.67,0.547,1.853,5.027,0.152,0.145,0,0.854,9.999,12.06,106.89,-0.24,0.05,107.86,0.07,0.5
2024-06-01 08:41:12,46.8931,-91.0429,125.61,1.02,1.42,11.5,-1.56,1.62,136.31,1.856,0.408,1.257,3.335,0.164,0.16,0,0.822,10.005,12.06,106.9,-0.24,0.05,107.85,0.07,0.51
2024-06-01 08:51:08,46.8931,-91.0429,141.62,0.97,4.66,11.6,-1,1.85,148.72,2.049,0.345,1.402,3.158,0.158,0.166,0,0.918,9.945,12.1,107.07,-0.27,0.05,107.98,0.07,0.54
2024-06-01 09:11:11,46.8931,-91.0429,193.64,1.09,1.61,11.4,-1,1.92,163.34,1.414,0.311,0.838,2.498,0.14,0.16,0,0.935,9.886,12.15,107.36,-0.28,0.05,108.08,0.07,0.59
2024-06-01 09:21:08,46.8931,-91.0429,209.52,0.96,1.39,11.6,-2.51,1.61,160.62,1.67,0.325,1.047,2.578,0.146,0.131,0,0.838,9.901,12.14,107.31,-0.25,0.05,108.05,0.07,0.46
2024-06-01 09:31:09,46.8931,-91.0429,241.48,1.15,1.5,11.5,0.01,2.78,147.48,2.308,0.28,1.708,3.19,0.167,0.154,0,1.015,9.876,12.14,107.26,-0.25,0.05,108.01,0.07,0.46
2024-06-01 09:41:09,46.8931,-91.0429,186.08,0.87,1.21,11.5,-0.55,2.34,163.28,1.745,0.372,1.144,2.771,0.147,0.143,0,0.806,9.88,12.11,107.01,-0.27,0.05,107.84,0.07,0.47
2024-06-01 09:51:10,46.8931,-91.0429,308.42,1.05,1.81,11.3,-1.22,2.56,191.62,1.908,0.301,1.337,2.997,0.182,0.193,0,0.838,9.858,12.13,107.12,-0.26,0.05,107.91,0.07,0.46
2024-06-01 10:01:10,46.8931,-91.0429,290.44,0.88,1.97,11,-1.37,1.88,161.64,1.584,0.329,1.096,3.029,0.145,0.147,0,0.918,9.898,12.13,107.23,-0.27,0.05,107.92,0.07,0.54
2024-06-01 10:11:10,46.8931,-91.0429,207.24,0.66,0.9,11.2,-0.81,2.08,162.44,1.35,0.315,0.87,2.578,0.136,0.126,0,0.838,9.909,12.13,107.25,-0.23,0.05,107.91,0.07,0.49
2024-06-01 10:21:11,46.8931,-91.0429,223,0.86,1.29,11.2,-1.63,2.08,153,1.245,0.374,0.709,2.304,0.141,0.147,0,0.822,9.902,12.12,107.18,-0.27,0.05,107.87,0.07,0.5
2024-06-01 10:31:11,46.8931,-91.0429,306.02,0.78,1.02,11.2,-3.62,0.79,166.82,1.043,0.264,0.548,1.982,0.158,0.166,0,0.918,9.913,12.12,107.18,-0.23,0.05,107.85,0.07,0.49
2024-06-01 11:01:12,46.8931,-91.0428,348.5,0.81,1.26,11.9,-1.39,1.62,150.7,1.012,0.307,0.516,2.03,0.148,0.14,0,0.854,9.965,12.12,107.3,-0.28,0.05,107.89,0.07,0.45
2024-06-01 11:11:12,46.8931,-91.0429,33.75,0.55,0.9,12.4,-1.65,2.32,164.75,0.97,0.258,0.451,2.03,0.16,0.173,0,0.983,9.963,12.13,107.4,-0.27,0.05,107.97,0.07,0.48
2024-06-01 11:21:12,46.8931,-91.0429,303.14,0.66,0.94,12.6,-1.09,1.87,167.24,1.191,0.343,0.628,2.159,0.159,0.166,0,0.838,9.982,12.14,107.51,-0.27,0.05,108,0.07,0.47
2024-06-01 11:31:13,46.8931,-91.0429,313.08,1.47,2.24,12.3,-1.1,1.49,193.08,1.202,0.293,0.612,2.385,0.172,0.205,0,0.918,9.981,12.15,107.57,-0.27,0.05,108.03,0.07,0.47
2024-06-01 11:41:14,46.8931,-91.0429,304.54,1.59,2.2,12,-1.44,1.81,134.04,1.198,0.266,0.725,2.159,0.139,0.136,0,0.806,10.006,12.14,107.62,-0.29,0.05,108.06,0.07,0.51
2024-06-01 12:11:16,46.8931,-91.0429,333.45,0.96,1.26,12.4,-1.48,2.27,152.25,1.26,0.313,0.725,2.401,0.159,0.138,0,0.79,10.06,12.15,107.79,-0.26,0.05,108.07,0.07,0.45
2024-06-01 13:01:24,46.8931,-91.0429,150.33,0.66,1.4,15.3,-1.47,1.93,146.63,1.551,0.284,0.967,2.481,0.16,0.162,0,0.951,10.122,12.15,108,-0.3,0.05,107.99,0.07,0.5
2024-06-01 13:11:21,46.8931,-91.0429,299,0.71,1.03,15.5,-1.34,2,139.7,1.557,0.273,1.015,2.481,0.164,0.156,0,0.902,10.149,12.15,108.07,-0.31,0.05,108.01,0.07,0.47
2024-06-01 13:21:22,46.8931,-91.0429,18.52,0.77,1.2,15.7,-1.37,2.24,162.12,1.521,0.355,0.87,2.53,0.166,0.17,0,0.902,10.18,12.15,108.11,-0.21,0.05,108.02,0.07,0.45
2024-06-01 14:11:26,46.8931,-91.0429,125.13,0.88,1.49,17.9,-1.07,1.71,124.83,1.362,0.336,0.612,2.465,0.163,0.198,0,0.886,10.3,12.15,108.46,-0.3,0.05,108.06,0.07,0.45
2024-06-01 14:21:30,46.8931,-91.0429,168.29,1.3,1.82,18.6,-1.24,1.79,147.79,1.422,0.307,0.902,2.353,0.16,0.171,0,0.951,10.242,12.16,108.36,-0.28,0.05,107.92,0.07,0.48
2024-06-01 14:31:27,46.8931,-91.0429,217.06,1.98,4.18,19.4,-1.38,2.07,188.66,1.33,0.288,0.79,2.369,0.173,0.15,0,0.806,10.325,12.16,108.58,-0.29,0.05,108.01,0.07,0.4
2024-06-01 14:41:28,46.8931,-91.0428,206.95,3.08,5.42,19.2,-0.88,3.09,161.75,1.383,0.274,0.87,2.24,0.165,0.154,0,0.935,10.375,12.16,108.73,-0.28,0.05,108.08,0.07,0.42
2024-06-01 14:51:28,46.8931,-91.0428,236.26,2.69,3.72,18.7,-1.84,2.51,170.96,1.069,0.309,0.58,2.53,0.162,0.16,0,0.967,10.395,12.16,108.78,-0.29,0.05,108.11,0.07,0.45
2024-06-01 15:01:29,46.8931,-91.0428,220.38,2.8,3.98,18.5,-2.7,1.15,156.88,0.57,0.3,0.032,1.466,0.202,0.217,0,1.047,10.418,12.16,108.84,-0.3,0.05,108.12,0.07,0.44
2024-06-01 15:11:30,46.8931,-91.0428,235.53,2.63,4.7,18.4,-2.22,0.98,165.23,0.517,0.271,0.081,1.499,0.15,0.173,0,0.854,10.411,12.17,108.86,-0.28,0.05,108.12,0.07,0.43
2024-06-01 15:21:31,46.8931,-91.0428,257.51,1.55,2.53,17.9,-1.23,4.35,155.01,0.52,0.304,0,1.595,0.153,0.201,0,0.902,10.465,12.18,109.13,-0.28,0.05,108.2,0.07,0.42
2024-06-01 15:51:33,46.8932,-91.0429,278.28,1.56,2.47,18.7,-2.62,0.34,172.68,0.478,0.285,0.048,1.434,0.097,0.094,0,0.628,10.47,12.18,109.14,-0.32,0.05,108.13,0.07,0.44
2024-06-01 16:01:35,46.8932,-91.0429,266.94,0.96,2.56,18.9,-1.53,2.76,161.84,0.534,0.291,0,1.563,0.143,0.181,0,1.015,10.442,12.19,109.16,-0.29,0.05,108.11,0.07,0.47
2024-06-01 16:11:40,46.8932,-91.0429,256.01,1.62,2.64,18.8,-1.77,2.43,169.71,0.553,0.331,0.048,1.563,0.159,0.157,0,0.806,10.439,12.2,109.21,-0.32,0.05,108.12,0.07,0.41
2024-06-01 17:01:41,46.8931,-91.0428,270.51,2.71,3.51,17.8,-2.01,0.6,173.21,0.688,0.268,0.226,1.563,0.143,0.156,0,0.854,11.277,12.06,110.12,-0.29,0.05,108.06,0.07,0.39
2024-06-01 17:11:42,46.8931,-91.0428,239.72,1.51,3.03,17.6,-2.76,2.41,156.52,0.807,0.295,0.306,1.74,0.137,0.142,0,0.838,11.977,12,111.25,-0.32,0.05,108.19,0.07,0.32
2024-06-01 17:21:44,46.8931,-91.0428,306.16,1.31,3.53,18,-1.95,0.27,197.26,1.017,0.328,0.467,1.998,0.146,0.15,0,0.918,11.563,12.03,110.55,-0.26,0.05,108.08,0.07,0.37
2024-06-01 17:31:43,46.8931,-91.0429,351.73,7.12,11.53,13.5,3.49,-1.22,322.13,1.684,0.347,1.128,2.804,0.179,0.197,0,0.935,11.98,11.95,110.82,-0.29,0.05,108.11,0.07,0.35
2024-06-01 18:41:46,46.8931,-91.0429,125.97,3.23,5.26,16,1.44,4.35,116.47,1.184,0.305,0.661,2.208,0.153,0.173,0,0.87,11.802,11.93,110.22,-0.27,0.05,108.03,0.07,0.36
2024-06-01 19:01:52,46.8931,-91.0429,131.61,3.77,5.23,18,-0.26,4.25,115.71,1.172,0.273,0.677,2.111,0.152,0.143,0,0.741,12.004,11.92,110.69,-0.31,0.05,108.02,0.07,0.35
2024-06-01 19:11:52,46.8931,-91.0429,118.04,2.83,5.24,18.6,-4.44,2.23,107.54,1.162,0.349,0.548,2.079,0.127,0.098,0,0.645,12.081,11.93,110.92,-0.27,0.05,108.06,0.07,0.33
2024-06-01 19:21:48,46.8932,-91.0429,154.46,2.26,3.65,18.7,-0.67,1.7,142.96,1.226,0.278,0.773,2.191,0.168,0.174,0,0.951,12.124,11.93,111.05,-0.28,0.05,108.07,0.07,0.32
2024-06-01 19:41:52,46.8931,-91.0429,145.11,2.22,4.08,19.7,-2.98,1.37,121.21,1.461,0.286,0.983,2.61,0.167,0.165,0,0.854,12.213,11.91,111.08,-0.3,0.05,108.13,0.07,0.35
2024-06-01 19:51:54,46.8932,-91.0429,172.63,1.64,2.33,20,5.05,5.95,135.73,1.898,0.376,1.225,3.899,0.144,0.159,0,0.951,12.044,11.93,110.89,-0.27,0.05,108.07,0.07,0.31
2024-06-01 20:02:10,46.8932,-91.0429,146.23,1.82,2.58,19.3,-3.68,-0.18,135.43,2.058,0.317,1.45,3.078,0.15,0.164,0,0.806,12.044,11.93,110.83,-0.33,0.05,108.08,0.07,0.33
2024-06-01 20:11:51,46.8931,-91.0429,132.4,1.59,2.48,18.5,-4.84,-1.76,121.3,2.356,0.303,1.821,3.416,0.16,0.175,0,0.87,11.82,11.96,110.56,-0.27,0.05,108.04,0.07,0.36
2024-06-01 20:31:56,46.8931,-91.0429,119.88,2.55,5.18,17.4,0.97,3.49,113.98,2.769,0.327,2.03,4.254,0.17,0.171,0,0.822,11.684,11.97,110.28,-0.3,0.05,107.96,0.07,0.33
2024-06-01 20:51:53,46.8931,-91.0428,116.13,2.35,3.92,15.9,-0.98,2.64,115.63,2.969,0.325,2.369,3.899,0.203,0.202,0,0.854,11.769,11.96,110.39,-0.3,0.05,107.96,0.07,0.33
2024-06-01 21:01:53,46.8931,-91.0429,123.03,2.37,4.37,15.6,-1.92,2.12,114.93,3.229,0.436,2.433,4.963,0.178,0.182,0,0.822,11.805,11.98,110.7,-0.26,0.05,108.28,0.07,0.32
2024-06-01 22:22:01,46.8931,-91.0429,349.21,1.13,2.59,13.5,1.63,1.33,151.21,3.307,0.323,2.739,4.173,0.202,0.21,0,1.015,11.326,12.03,109.9,-0.27,0.05,107.96,0.07,0.3
2024-06-01 23:12:07,46.8931,-91.0429,169.36,1.44,2.44,12.4,-1.75,1.31,150.36,3.529,0.324,2.804,4.512,0.192,0.178,0,0.902,11.09,12.07,109.71,-0.31,0.05,107.94,0.07,0.28
2024-06-01 23:22:03,46.8931,-91.0429,71.03,1.82,5.52,12.1,-2.11,2.84,160.43,3.327,0.229,2.836,4.125,0.143,0.118,0,0.935,11.018,12.08,109.6,-0.32,0.05,107.94,0.07,0.27
2024-06-01 23:32:03,46.8931,-91.0428,285.05,1.45,4.66,12.6,-0.96,2.09,158.95,3.353,0.331,2.594,4.463,0.192,0.203,0,0.999,10.865,12.11,109.49,-0.25,0.05,107.92,0.07,0.24
